[
  {
    "id": 1,
    "code": "96043927",
    "name": "فاطمه الزهرا",
    "branch": "فنی حرفه ای",
    "status": "دولتی/دخترانه",
    "region": "ناحیه یک",
    "longitude": 59.66790333,
    "latitude": 36.30339837,
    "address": "بزرگراه شهید بابانظر -بابانظر42- محسن زاده 1"
  },
  {
    "id": 2,
    "code": "50172605",
    "name": "حوا",
    "branch": "فنی حرفه ای",
    "status": "دولتی/دخترانه",
    "region": "ناحیه یک",
    "longitude": 59.6285302,
    "latitude": 36.3145592,
    "address": "مسلم جنوبی 8 چهارراه اول سمت راست (سرخپوش 20)"
  },
  {
    "id": 3,
    "code": "96085457",
    "name": "بدیع",
    "branch": "فنی حرفه ای",
    "status": "دولتی/دخترانه",
    "region": "ناحیه یک",
    "longitude": 59.65885039,
    "latitude": 36.31584539,
    "address": "بلوار طبرسی شمالی -طبرسی شمالی 10"
  },
  {
    "id": 4,
    "code": "96083322",
    "name": "الزهرا",
    "branch": "فنی حرفه ای",
    "status": "دولتی/دخترانه",
    "region": "ناحیه یک",
    "longitude": 59.67250129,
    "latitude": 36.31385482,
    "address": "پنجتن 40، جنب  مخابرات"
  },
  {
    "id": 5,
    "code": "50142500",
    "name": "سینا",
    "branch": "فنی حرفه ای",
    "status": "دولتی/پسرانه",
    "region": "ناحیه یک",
    "longitude": 59.6162,
    "latitude": 36.2995,
    "address": "خایابان کاشانی بین 20و22"
  },
  {
    "id": 6,
    "code": "50118301",
    "name": "مهدیزاده",
    "branch": "فنی حرفه ای",
    "status": "دولتی/پسرانه",
    "region": "ناحیه یک",
    "longitude": 59.61785387,
    "latitude": 36.29827691,
    "address": "آیت اله بهجت 15"
  },
  {
    "id": 7,
    "code": "96027517",
    "name": "دور اندیش",
    "branch": "فنی حرفه ای",
    "status": "دولتی/پسرانه",
    "region": "ناحیه یک",
    "longitude": 59.62006018,
    "latitude": 36.31429468,
    "address": "بلوار عبادی ،عبادی 65"
  },
  {
    "id": 8,
    "code": "96085456",
    "name": "خامنه ای",
    "branch": "فنی حرفه ای",
    "status": "دولتی/پسرانه",
    "region": "ناحیه یک",
    "longitude": 59.6339929,
    "latitude": 36.3251405,
    "address": "رسالت شمالی 64 بیست متری قائم(ع)قائم31"
  },
  {
    "id": 9,
    "code": "80059530",
    "name": "رحیم زاده",
    "branch": "فنی حرفه ای",
    "status": "دولتی/پسرانه",
    "region": "ناحیه یک",
    "longitude": 59.66360123,
    "latitude": 36.29081031,
    "address": "بزرگراه شهید بابانظر - بابانظر 64"
  },
  {
    "id": 10,
    "code": "80059529",
    "name": "شهدای پارسا",
    "branch": "فنی حرفه ای",
    "status": "دولتی/پسرانه",
    "region": "ناحیه یک",
    "longitude": 59.65091621,
    "latitude": 36.33112362,
    "address": "خیابان رسالت شمالی 81"
  }
]
